~VERSION INFORMATION
 VERS.                  2.0 : CWLS Log ASCII Standard - Version 2.0
 WRAP.                   NO : One line per depth step
~WELL INFORMATION BLOCK
#MNEM .UNIT         DATA            DESCRIPTION
#---- ----          ----            ----------
 STRT .M           500.0000        : START DEPTH
 STOP .M          2500.0000        : STOP DEPTH
 STEP .M             0.5000        : STEP
 NULL .            -9999.25        : NULL VALUE
 COMP .            PT PERTAMINA EP : COMPANY
 WELL .            SUMATRA-A-01    : WELL
 FLD  .            MINAS FIELD     : FIELD
 LOC  .            RIAU, INDONESIA : LOCATION
 SRVC .            SCHLUMBERGER    : SERVICE COMPANY
 DATE .            01-JAN-2023     : LOG DATE
 UWI  .            500-12345-0000  : UNIQUE WELL ID
~CURVE INFORMATION BLOCK
 DEPT .M           : Measured Depth
 GR   .gAPI        : Gamma Ray
 RHOB .G/C3        : Bulk Density
 NPHI .V/V         : Neutron Porosity
 RT   .OHMM        : True Resistivity
 CALI .IN          : Caliper
~PARAMETER INFORMATION BLOCK
 MUD  .            WBM             : MUD TYPE
 BHT  .DEGC        95.0            : BOTTOM HOLE TEMP
 BS   .IN          8.5             : BIT SIZE
~A  DEPT     GR       RHOB    NPHI    RT      CALI
  500.0000   45.23   2.350   0.280   15.20   8.62
  500.5000   48.11   2.340   0.275   14.80   8.58
  501.0000   52.67   2.320   0.290   12.50   8.65
  501.5000   61.34   2.310   0.300   10.20   8.70
  502.0000   75.89   2.290   0.315   8.70    8.72
  502.5000   88.45   2.280   0.325   7.30    8.68
  503.0000   95.12   2.270   0.330   6.80    8.71
  503.5000   102.34  2.265   0.335   6.50    8.69
  504.0000   98.76   2.275   0.328   7.10    8.67
  504.5000   85.23   2.285   0.318   8.20    8.64
  505.0000   72.45   2.295   0.308   9.80    8.61
  505.5000   60.11   2.305   0.298   11.50   8.59
  506.0000   52.33   2.315   0.288   13.20   8.57
  506.5000   46.78   2.330   0.278   14.90   8.55
  507.0000   42.15   2.345   0.268   16.50   8.53
  507.5000   38.90   2.355   0.260   18.20   8.51
  508.0000   36.72   2.360   0.255   19.80   8.50
  508.5000   35.45   2.365   0.252   21.30   8.50
  509.0000   34.23   2.370   0.250   22.50   8.49
  509.5000   33.98   2.372   0.248   23.20   8.49
  510.0000   34.56   2.368   0.251   22.80   8.50
